[
  { "slug": "hendaye", "surfForecastSlug": "Hendaye-Plage", "name": "Hendaye", "latitude": 43.3818, "longitude": -1.7892, "department": "64", "departmentName": "Pyrénées-Atlantiques" },
  { "slug": "sokoa", "surfForecastSlug": "Socoa", "name": "Sokoa", "latitude": 43.3765, "longitude": -1.7710, "department": "64", "departmentName": "Pyrénées-Atlantiques" },
  { "slug": "guethary", "surfForecastSlug": "Cenitz", "name": "Guéthary", "latitude": 43.4270, "longitude": -1.6130, "department": "64", "departmentName": "Pyrénées-Atlantiques" },
  { "slug": "parlementia", "surfForecastSlug": "Parlementia", "name": "Parlementia", "latitude": 43.4305, "longitude": -1.6010, "department": "64", "departmentName": "Pyrénées-Atlantiques" },
  { "slug": "bidart", "surfForecastSlug": "Bidart", "name": "Bidart", "latitude": 43.4370, "longitude": -1.5930, "department": "64", "departmentName": "Pyrénées-Atlantiques" },
  { "slug": "lafitenia", "surfForecastSlug": "Lafitenia", "name": "Lafitenia", "latitude": 43.4180, "longitude": -1.5780, "department": "64", "departmentName": "Pyrénées-Atlantiques" },
  { "slug": "cote-des-basques", "surfForecastSlug": "Cotedes-Basques", "name": "Côte des Basques", "latitude": 43.4780, "longitude": -1.5670, "department": "64", "departmentName": "Pyrénées-Atlantiques" },
  { "slug": "grande-plage-biarritz", "surfForecastSlug": "Grande-Plage", "name": "Grande Plage Biarritz", "latitude": 43.4830, "longitude": -1.5580, "department": "64", "departmentName": "Pyrénées-Atlantiques" },
  { "slug": "marinella", "surfForecastSlug": "Anglet-Marinella", "name": "Marinella", "latitude": 43.4950, "longitude": -1.5350, "department": "64", "departmentName": "Pyrénées-Atlantiques" },
  { "slug": "les-corsaires", "surfForecastSlug": "Anglet-Corsaires", "name": "Les Corsaires", "latitude": 43.5020, "longitude": -1.5280, "department": "64", "departmentName": "Pyrénées-Atlantiques" },
  { "slug": "belharra", "surfForecastSlug": "Belharra", "name": "Belharra", "latitude": 43.4080, "longitude": -1.6820, "department": "64", "departmentName": "Pyrénées-Atlantiques" },
  { "slug": "ondres", "surfForecastSlug": "Ondres-Plage", "name": "Ondres", "latitude": 43.5600, "longitude": -1.4680, "department": "40", "departmentName": "Landes" },
  { "slug": "lacanau-ocean", "surfForecastSlug": "Lacanau-Ocean", "name": "Lacanau Ocean", "latitude": 45.0, "longitude": -1.21, "department": "33", "departmentName": "Gironde" },
  { "slug": "la-graviere", "surfForecastSlug": "La-Graviere", "name": "La Gravière", "latitude": 43.68, "longitude": -1.44, "department": "40", "departmentName": "Landes" },
  { "slug": "la-torche", "surfForecastSlug": "Pointdela-Torche", "name": "La Torche", "latitude": 47.84, "longitude": -4.35, "department": "29", "departmentName": "Finistère" }
]
