[
  { "slug": "hendaye", "name": "Hendaye", "latitude": 43.3818, "longitude": -1.7892, "department": "64", "departmentName": "Pyrénées-Atlantiques" },
  { "slug": "sokoa", "name": "Sokoa", "latitude": 43.3765, "longitude": -1.7710, "department": "64", "departmentName": "Pyrénées-Atlantiques" },
  { "slug": "guethary", "name": "Guéthary", "latitude": 43.4270, "longitude": -1.6130, "department": "64", "departmentName": "Pyrénées-Atlantiques" },
  { "slug": "parlementia", "name": "Parlementia", "latitude": 43.4305, "longitude": -1.6010, "department": "64", "departmentName": "Pyrénées-Atlantiques" },
  { "slug": "bidart", "name": "Bidart", "latitude": 43.4370, "longitude": -1.5930, "department": "64", "departmentName": "Pyrénées-Atlantiques" },
  { "slug": "lafitenia", "name": "Lafitenia", "latitude": 43.4180, "longitude": -1.5780, "department": "64", "departmentName": "Pyrénées-Atlantiques" },
  { "slug": "cote-des-basques", "name": "Côte des Basques", "latitude": 43.4780, "longitude": -1.5670, "department": "64", "departmentName": "Pyrénées-Atlantiques" },
  { "slug": "grande-plage-biarritz", "name": "Grande Plage Biarritz", "latitude": 43.4830, "longitude": -1.5580, "department": "64", "departmentName": "Pyrénées-Atlantiques" },
  { "slug": "marinella", "name": "Marinella", "latitude": 43.4950, "longitude": -1.5350, "department": "64", "departmentName": "Pyrénées-Atlantiques" },
  { "slug": "les-corsaires", "name": "Les Corsaires", "latitude": 43.5020, "longitude": -1.5280, "department": "64", "departmentName": "Pyrénées-Atlantiques" },
  { "slug": "belharra", "name": "Belharra", "latitude": 43.4080, "longitude": -1.6820, "department": "64", "departmentName": "Pyrénées-Atlantiques" },
  { "slug": "ondres", "name": "Ondres", "latitude": 43.5600, "longitude": -1.4680, "department": "40", "departmentName": "Landes" },

  { "slug": "lacanau-ocean", "name": "Lacanau Ocean", "latitude": 45.0, "longitude": -1.21, "department": "33", "departmentName": "Gironde" },
  { "slug": "hourtin-plage", "name": "Hourtin Plage", "latitude": 45.25, "longitude": -1.17, "department": "33", "departmentName": "Gironde" },
  { "slug": "cap-ferret", "name": "Cap Ferret", "latitude": 44.63, "longitude": -1.26, "department": "33", "departmentName": "Gironde" },
  { "slug": "carcans-plage", "name": "Carcans Plage", "latitude": 45.08, "longitude": -1.2, "department": "33", "departmentName": "Gironde" },

  { "slug": "la-graviere", "name": "La Gravière", "latitude": 43.68, "longitude": -1.44, "department": "40", "departmentName": "Landes" },
  { "slug": "la-centrale", "name": "La Centrale", "latitude": 43.66, "longitude": -1.44, "department": "40", "departmentName": "Landes" },
  { "slug": "le-penon", "name": "Le Penon", "latitude": 43.71, "longitude": -1.44, "department": "40", "departmentName": "Landes" },
  { "slug": "capbreton-la-piste", "name": "La Piste", "latitude": 43.64, "longitude": -1.45, "department": "40", "departmentName": "Landes" },
  { "slug": "biscarrosse-plage", "name": "Biscarrosse Plage", "latitude": 44.46, "longitude": -1.25, "department": "40", "departmentName": "Landes" },
  { "slug": "les-estagnots", "name": "Les Estagnots", "latitude": 43.69, "longitude": -1.44, "department": "40", "departmentName": "Landes" },

  { "slug": "la-torche", "name": "La Torche", "latitude": 47.84, "longitude": -4.35, "department": "29", "departmentName": "Finistère" },
  { "slug": "baie-des-trepasses", "name": "Baie des Trépasses", "latitude": 48.05, "longitude": -4.71, "department": "29", "departmentName": "Finistère" },
  { "slug": "anse-de-lesconil", "name": "Anse de Lesconil", "latitude": 47.79, "longitude": -4.27, "department": "29", "departmentName": "Finistère" },
  { "slug": "pen-hat", "name": "Pen Hat", "latitude": 48.27, "longitude": -4.62, "department": "29", "departmentName": "Finistère" },
  { "slug": "blancs-sablons", "name": "Blancs Sablons", "latitude": 48.37, "longitude": -4.77, "department": "29", "departmentName": "Finistère" },

  { "slug": "guidel-plages", "name": "Guidel Plages", "latitude": 47.76, "longitude": -3.52, "department": "56", "departmentName": "Morbihan" },
  { "slug": "etel", "name": "Étel", "latitude": 47.64, "longitude": -3.22, "department": "56", "departmentName": "Morbihan" },
  { "slug": "les-donnants", "name": "Les Donnants", "latitude": 47.32, "longitude": -3.24, "department": "56", "departmentName": "Morbihan" },
  { "slug": "larmor-plage", "name": "Larmor Plage", "latitude": 47.7, "longitude": -3.39, "department": "56", "departmentName": "Morbihan" }
]
